[{"id": "C-90pOan2H0ViaA5WVtY_Q", "alias": "zaza-fine-salad-wood-oven-pizza-little-rock", "name": "ZAZA Fine Salad + Wood-Oven Pizza", "image_url": "https://s3-media1.fl.yelpcdn.com/bphoto/CuGayRYaKf7fDQHzUaPhRg/o.jpg", "is_closed": false, "url": "https://www.yelp.com/biz/zaza-fine-salad-wood-oven-pizza-little-rock?adjust_creative=86rbITPMXcJ3WOIrVt31sw&utm_campaign=yelp_api_v3&utm_medium=api_v3_business_search&utm_source=86rbITPMXcJ3WOIrVt31sw", "review_count": 313, "categories": [{"alias": "pizza", "title": "Pizza"}, {"alias": "salad", "title": "Salad"}, {"alias": "gelato", "title": "Gelato"}], "rating": 4.0, "coordinates": {"latitude": 34.77062, "longitude": -92.33653}, "transactions": ["delivery"], "price": "$$", "location": {"address1": "5600 Kavanaugh Blvd", "address2": "", "address3": "", "city": "Little Rock", "zip_code": "72207", "country": "US", "state": "AR", "display_address": ["5600 Kavanaugh Blvd", "Little Rock, AR 72207"]}, "phone": "+15016619292", "display_phone": "(501) 661-9292", "distance": 5241.434445462843}, {"id": "t60mAh1Ov3bXeFJYtCHsxA", "alias": "vinos-little-rock", "name": "Vino's", "image_url": "https://s3-media3.fl.yelpcdn.com/bphoto/bRsyE5dbN07Ox7l2FlfhAQ/o.jpg", "is_closed": false, "url": "https://www.yelp.com/biz/vinos-little-rock?adjust_creative=86rbITPMXcJ3WOIrVt31sw&utm_campaign=yelp_api_v3&utm_medium=api_v3_business_search&utm_source=86rbITPMXcJ3WOIrVt31sw", "review_count": 209, "categories": [{"alias": "pizza", "title": "Pizza"}, {"alias": "breweries", "title": "Breweries"}, {"alias": "musicvenues", "title": "Music Venues"}], "rating": 4.0, "coordinates": {"latitude": 34.74332, "longitude": -92.28214}, "transactions": ["delivery"], "price": "$", "location": {"address1": "923 W 7th St", "address2": "", "address3": "", "city": "Little Rock", "zip_code": "72201", "country": "US", "state": "AR", "display_address": ["923 W 7th St", "Little Rock, AR 72201"]}, "phone": "+15013758466", "display_phone": "(501) 375-8466", "distance": 5627.226522476266}, {"id": "buISsBLE1J7E4Mwcph9pPA", "alias": "damgoode-pies-little-rock", "name": "Damgoode Pies", "image_url": "https://s3-media1.fl.yelpcdn.com/bphoto/DnY0yKmEcXQMPHiPm0ilCw/o.jpg", "is_closed": false, "url": "https://www.yelp.com/biz/damgoode-pies-little-rock?adjust_creative=86rbITPMXcJ3WOIrVt31sw&utm_campaign=yelp_api_v3&utm_medium=api_v3_business_search&utm_source=86rbITPMXcJ3WOIrVt31sw", "review_count": 180, "categories": [{"alias": "pizza", "title": "Pizza"}, {"alias": "desserts", "title": "Desserts"}, {"alias": "salad", "title": "Salad"}], "rating": 3.5, "coordinates": {"latitude": 34.7685964874941, "longitude": -92.3498980861176}, "transactions": ["pickup", "delivery"], "price": "$$", "location": {"address1": "6706 Cantrell Rd", "address2": "", "address3": "", "city": "Little Rock", "zip_code": "72207", "country": "US", "state": "AR", "display_address": ["6706 Cantrell Rd", "Little Rock, AR 72207"]}, "phone": "+15016642239", "display_phone": "(501) 664-2239", "distance": 5130.448132891343}, {"id": "_c4oRxuosHXCVYyqB_--pQ", "alias": "certified-pies-little-rock", "name": "Certified Pies", "image_url": "https://s3-media1.fl.yelpcdn.com/bphoto/mEMs3yilAlAEI3L00RvsPw/o.jpg", "is_closed": false, "url": "https://www.yelp.com/biz/certified-pies-little-rock?adjust_creative=86rbITPMXcJ3WOIrVt31sw&utm_campaign=yelp_api_v3&utm_medium=api_v3_business_search&utm_source=86rbITPMXcJ3WOIrVt31sw", "review_count": 22, "categories": [{"alias": "pizza", "title": "Pizza"}, {"alias": "chicken_wings", "title": "Chicken Wings"}, {"alias": "salad", "title": "Salad"}], "rating": 4.5, "coordinates": {"latitude": 34.75292, "longitude": -92.38365}, "transactions": ["delivery"], "location": {"address1": "9813 W Markham St", "address2": "Ste B", "address3": "", "city": "Little Rock", "zip_code": "72205", "country": "US", "state": "AR", "display_address": ["9813 W Markham St", "Ste B", "Little Rock, AR 72205"]}, "phone": "+15014425096", "display_phone": "(501) 442-5096", "distance": 5276.487460195095}, {"id": "b-SJobh1ZoHiHMOe4mg9cQ", "alias": "shotgun-dans-pizza-little-rock-2", "name": "Shotgun Dan's Pizza", "image_url": "https://s3-media2.fl.yelpcdn.com/bphoto/HpdNij-dptQc7A1nBSyPDw/o.jpg", "is_closed": false, "url": "https://www.yelp.com/biz/shotgun-dans-pizza-little-rock-2?adjust_creative=86rbITPMXcJ3WOIrVt31sw&utm_campaign=yelp_api_v3&utm_medium=api_v3_business_search&utm_source=86rbITPMXcJ3WOIrVt31sw", "review_count": 79, "categories": [{"alias": "pizza", "title": "Pizza"}], "rating": 3.5, "coordinates": {"latitude": 34.7533105547242, "longitude": -92.3958366012609}, "transactions": ["delivery"], "price": "$$", "location": {"address1": "10923 W Markham St", "address2": "", "address3": "", "city": "Little Rock", "zip_code": "72211", "country": "US", "state": "AR", "display_address": ["10923 W Markham St", "Little Rock, AR 72211"]}, "phone": "+15012249519", "display_phone": "(501) 224-9519", "distance": 6190.243187682368}, {"id": "HN--TfnSuPYIE8JQxvSpJg", "alias": "hideaway-pizza-north-little-rock", "name": "Hideaway Pizza", "image_url": "https://s3-media4.fl.yelpcdn.com/bphoto/iA4ITeYxR0E9tjWeRks1iw/o.jpg", "is_closed": false, "url": "https://www.yelp.com/biz/hideaway-pizza-north-little-rock?adjust_creative=86rbITPMXcJ3WOIrVt31sw&utm_campaign=yelp_api_v3&utm_medium=api_v3_business_search&utm_source=86rbITPMXcJ3WOIrVt31sw", "review_count": 144, "categories": [{"alias": "pizza", "title": "Pizza"}, {"alias": "italian", "title": "Italian"}, {"alias": "sandwiches", "title": "Sandwiches"}], "rating": 4.0, "coordinates": {"latitude": 34.800596, "longitude": -92.21649}, "transactions": ["delivery"], "price": "$$", "location": {"address1": "5103 Warden Rd", "address2": "", "address3": null, "city": "North Little Rock", "zip_code": "72116", "country": "US", "state": "AR", "display_address": ["5103 Warden Rd", "North Little Rock, AR 72116"]}, "phone": "+15012707777", "display_phone": "(501) 270-7777", "distance": 14084.660375423078}, {"id": "kVj5OTBSRPDLqkRW7b9wsg", "alias": "lost-forty-brewing-little-rock", "name": "Lost Forty Brewing", "image_url": "https://s3-media2.fl.yelpcdn.com/bphoto/6jrsWoenYdVUvFhwX1WZcA/o.jpg", "is_closed": false, "url": "https://www.yelp.com/biz/lost-forty-brewing-little-rock?adjust_creative=86rbITPMXcJ3WOIrVt31sw&utm_campaign=yelp_api_v3&utm_medium=api_v3_business_search&utm_source=86rbITPMXcJ3WOIrVt31sw", "review_count": 386, "categories": [{"alias": "breweries", "title": "Breweries"}], "rating": 4.5, "coordinates": {"latitude": 34.7424497, "longitude": -92.2596037402937}, "transactions": ["delivery"], "price": "$$", "location": {"address1": "501 Byrd St", "address2": null, "address3": "", "city": "Little Rock", "zip_code": "72202", "country": "US", "state": "AR", "display_address": ["501 Byrd St", "Little Rock, AR 72202"]}, "phone": "+15013197275", "display_phone": "(501) 319-7275", "distance": 7533.804268063672}, {"id": "gwA7PHdpNtGq_aF1PPp2NA", "alias": "old-mill-pizza-north-little-rock", "name": "Old Mill Pizza", "image_url": "https://s3-media3.fl.yelpcdn.com/bphoto/-QYzt1luc1vrQ_GdUVfggg/o.jpg", "is_closed": false, "url": "https://www.yelp.com/biz/old-mill-pizza-north-little-rock?adjust_creative=86rbITPMXcJ3WOIrVt31sw&utm_campaign=yelp_api_v3&utm_medium=api_v3_business_search&utm_source=86rbITPMXcJ3WOIrVt31sw", "review_count": 29, "categories": [{"alias": "pizza", "title": "Pizza"}], "rating": 4.0, "coordinates": {"latitude": 34.79128, "longitude": -92.25913}, "transactions": ["delivery"], "location": {"address1": "4000 JFK Blvd", "address2": null, "address3": "", "city": "North Little Rock", "zip_code": "72116", "country": "US", "state": "AR", "display_address": ["4000 JFK Blvd", "North Little Rock, AR 72116"]}, "phone": "+15013798539", "display_phone": "(501) 379-8539", "distance": 10468.820671246493}, {"id": "bayCw92xjVQa3UkAD0EPJA", "alias": "sauced-bar-and-oven-little-rock-2", "name": "Sauced Bar and Oven", "image_url": "https://s3-media3.fl.yelpcdn.com/bphoto/pZj_nHz2u2iFxO5A8wwi1w/o.jpg", "is_closed": false, "url": "https://www.yelp.com/biz/sauced-bar-and-oven-little-rock-2?adjust_creative=86rbITPMXcJ3WOIrVt31sw&utm_campaign=yelp_api_v3&utm_medium=api_v3_business_search&utm_source=86rbITPMXcJ3WOIrVt31sw", "review_count": 150, "categories": [{"alias": "pizza", "title": "Pizza"}, {"alias": "burgers", "title": "Burgers"}, {"alias": "tapas", "title": "Tapas Bars"}], "rating": 4.0, "coordinates": {"latitude": 34.77043801641719, "longitude": -92.3985923742226}, "transactions": ["delivery"], "price": "$$", "location": {"address1": "11121 N Rodney Parham Rd", "address2": "Ste 9A", "address3": null, "city": "Little Rock", "zip_code": "72212", "country": "US", "state": "AR", "display_address": ["11121 N Rodney Parham Rd", "Ste 9A", "Little Rock, AR 72212"]}, "phone": "+15013531534", "display_phone": "(501) 353-1534", "distance": 7570.212279866424}, {"id": "v31sFnAGfGO5JhdVSR1kRA", "alias": "blaze-pizza-little-rock", "name": "Blaze Pizza", "image_url": "https://s3-media3.fl.yelpcdn.com/bphoto/TvH6-R0kPcZFWBMudPt8OA/o.jpg", "is_closed": false, "url": "https://www.yelp.com/biz/blaze-pizza-little-rock?adjust_creative=86rbITPMXcJ3WOIrVt31sw&utm_campaign=yelp_api_v3&utm_medium=api_v3_business_search&utm_source=86rbITPMXcJ3WOIrVt31sw", "review_count": 84, "categories": [{"alias": "salad", "title": "Salad"}, {"alias": "pizza", "title": "Pizza"}, {"alias": "hotdogs", "title": "Fast Food"}], "rating": 4.0, "coordinates": {"latitude": 34.7931564, "longitude": -92.4015122}, "transactions": ["pickup", "delivery"], "price": "$", "location": {"address1": "11525 Cantrell Rd", "address2": "Ste 920", "address3": null, "city": "Little Rock", "zip_code": "72212", "country": "US", "state": "AR", "display_address": ["11525 Cantrell Rd", "Ste 920", "Little Rock, AR 72212"]}, "phone": "+15014062114", "display_phone": "(501) 406-2114", "distance": 9649.17946371242}, {"id": "EKx4c0HiqC_hpL6iGJ8-zA", "alias": "valhalla-benton", "name": "Valhalla", "image_url": "https://s3-media1.fl.yelpcdn.com/bphoto/92pDSi2uCIhXLQjYOR984A/o.jpg", "is_closed": false, "url": "https://www.yelp.com/biz/valhalla-benton?adjust_creative=86rbITPMXcJ3WOIrVt31sw&utm_campaign=yelp_api_v3&utm_medium=api_v3_business_search&utm_source=86rbITPMXcJ3WOIrVt31sw", "review_count": 21, "categories": [{"alias": "pizza", "title": "Pizza"}, {"alias": "sandwiches", "title": "Sandwiches"}, {"alias": "axethrowing", "title": "Axe Throwing"}], "rating": 4.0, "coordinates": {"latitude": 34.5633555, "longitude": -92.589327}, "transactions": ["delivery"], "location": {"address1": "226 W South St", "address2": null, "address3": "", "city": "Benton", "zip_code": "72015", "country": "US", "state": "AR", "display_address": ["226 W South St", "Benton, AR 72015"]}, "phone": "+15013164082", "display_phone": "(501) 316-4082", "distance": 29021.334757636574}, {"id": "xV6XjCTsbdESmHU60o8_gw", "alias": "irianas-pizza-little-rock", "name": "Iriana's Pizza", "image_url": "https://s3-media2.fl.yelpcdn.com/bphoto/jMlgTAq5pCUD7ZHiAl38TA/o.jpg", "is_closed": false, "url": "https://www.yelp.com/biz/irianas-pizza-little-rock?adjust_creative=86rbITPMXcJ3WOIrVt31sw&utm_campaign=yelp_api_v3&utm_medium=api_v3_business_search&utm_source=86rbITPMXcJ3WOIrVt31sw", "review_count": 107, "categories": [{"alias": "pizza", "title": "Pizza"}, {"alias": "salad", "title": "Salad"}], "rating": 3.5, "coordinates": {"latitude": 34.7478157392832, "longitude": -92.2688120019188}, "transactions": ["pickup", "delivery"], "price": "$$", "location": {"address1": "201 E Markham St", "address2": "", "address3": "", "city": "Little Rock", "zip_code": "72201", "country": "US", "state": "AR", "display_address": ["201 E Markham St", "Little Rock, AR 72201"]}, "phone": "+15013743656", "display_phone": "(501) 374-3656", "distance": 6941.43089032143}, {"id": "xwXYEAB2NZ8f8cCczoRbfg", "alias": "raduno-little-rock", "name": "Raduno", "image_url": "https://s3-media3.fl.yelpcdn.com/bphoto/LALgaKgpXDM-DckwJn69QA/o.jpg", "is_closed": false, "url": "https://www.yelp.com/biz/raduno-little-rock?adjust_creative=86rbITPMXcJ3WOIrVt31sw&utm_campaign=yelp_api_v3&utm_medium=api_v3_business_search&utm_source=86rbITPMXcJ3WOIrVt31sw", "review_count": 137, "categories": [{"alias": "bars", "title": "Bars"}, {"alias": "pizza", "title": "Pizza"}, {"alias": "breakfast_brunch", "title": "Breakfast & Brunch"}], "rating": 4.0, "coordinates": {"latitude": 34.73578, "longitude": -92.27318}, "transactions": ["delivery"], "price": "$$", "location": {"address1": "1318 Main St", "address2": "", "address3": "", "city": "Little Rock", "zip_code": "72202", "country": "US", "state": "AR", "display_address": ["1318 Main St", "Little Rock, AR 72202"]}, "phone": "+15013747476", "display_phone": "(501) 374-7476", "distance": 6169.563025345315}, {"id": "Ge6BseIRXgFNI7ttcD87tQ", "alias": "flying-saucer-little-rock-3", "name": "Flying Saucer", "image_url": "https://s3-media2.fl.yelpcdn.com/bphoto/3vJkuyd7EU99dupiFfJrBw/o.jpg", "is_closed": false, "url": "https://www.yelp.com/biz/flying-saucer-little-rock-3?adjust_creative=86rbITPMXcJ3WOIrVt31sw&utm_campaign=yelp_api_v3&utm_medium=api_v3_business_search&utm_source=86rbITPMXcJ3WOIrVt31sw", "review_count": 387, "categories": [{"alias": "beerbar", "title": "Beer Bar"}, {"alias": "tradamerican", "title": "American (Traditional)"}], "rating": 4.0, "coordinates": {"latitude": 34.7475614618603, "longitude": -92.2675555757702}, "transactions": ["delivery"], "price": "$$", "location": {"address1": "323 President Clinton Ave", "address2": "", "address3": "", "city": "Little Rock", "zip_code": "72223", "country": "US", "state": "AR", "display_address": ["323 President Clinton Ave", "Little Rock, AR 72223"]}, "phone": "+15013728032", "display_phone": "(501) 372-8032", "distance": 7036.381665447272}, {"id": "Etjw9URsZ3oyGi6E_I8F_w", "alias": "mama-mia-pizzeria-benton", "name": "MaMa Mia Pizzeria", "image_url": "https://s3-media2.fl.yelpcdn.com/bphoto/GuRvvDJyoODtkeJhDTjbYQ/o.jpg", "is_closed": false, "url": "https://www.yelp.com/biz/mama-mia-pizzeria-benton?adjust_creative=86rbITPMXcJ3WOIrVt31sw&utm_campaign=yelp_api_v3&utm_medium=api_v3_business_search&utm_source=86rbITPMXcJ3WOIrVt31sw", "review_count": 6, "categories": [{"alias": "pizza", "title": "Pizza"}], "rating": 4.5, "coordinates": {"latitude": 34.56590337479903, "longitude": -92.5864149392268}, "transactions": ["pickup", "delivery"], "location": {"address1": "117 E Cross St", "address2": null, "address3": "", "city": "Benton", "zip_code": "72015", "country": "US", "state": "AR", "display_address": ["117 E Cross St", "Benton, AR 72015"]}, "phone": "+15017227937", "display_phone": "(501) 722-7937", "distance": 28636.96816238843}, {"id": "LG7oPQmQuRlGwJNShV3N9A", "alias": "red-moon-tavern-little-rock", "name": "Red Moon Tavern", "image_url": "https://s3-media3.fl.yelpcdn.com/bphoto/5f-Ob_FYx7blbvKdcpOLQQ/o.jpg", "is_closed": false, "url": "https://www.yelp.com/biz/red-moon-tavern-little-rock?adjust_creative=86rbITPMXcJ3WOIrVt31sw&utm_campaign=yelp_api_v3&utm_medium=api_v3_business_search&utm_source=86rbITPMXcJ3WOIrVt31sw", "review_count": 20, "categories": [{"alias": "tradamerican", "title": "American (Traditional)"}, {"alias": "desserts", "title": "Desserts"}, {"alias": "pizza", "title": "Pizza"}], "rating": 4.5, "coordinates": {"latitude": 34.80701427100639, "longitude": -92.46819294663246}, "transactions": ["delivery"], "location": {"address1": "6015 Chenonceau Blvd", "address2": null, "address3": "", "city": "Little Rock", "zip_code": "72223", "country": "US", "state": "AR", "display_address": ["6015 Chenonceau Blvd", "Little Rock, AR 72223"]}, "phone": "+15013678188", "display_phone": "(501) 367-8188", "distance": 15045.495038139146}, {"id": "1o-Y0Al6cMXu01t01BZEuQ", "alias": "blade-and-barrel-brewing-co-jacksonville", "name": "Blade And Barrel Brewing Co", "image_url": "https://s3-media3.fl.yelpcdn.com/bphoto/WISi0oz2Uuu5VcWdrpxwqA/o.jpg", "is_closed": false, "url": "https://www.yelp.com/biz/blade-and-barrel-brewing-co-jacksonville?adjust_creative=86rbITPMXcJ3WOIrVt31sw&utm_campaign=yelp_api_v3&utm_medium=api_v3_business_search&utm_source=86rbITPMXcJ3WOIrVt31sw", "review_count": 9, "categories": [{"alias": "brewpubs", "title": "Brewpubs"}, {"alias": "pizza", "title": "Pizza"}, {"alias": "barbers", "title": "Barbers"}], "rating": 5.0, "coordinates": {"latitude": 34.87029572373808, "longitude": -92.12608121903455}, "transactions": [], "location": {"address1": "140 John Harden Dr", "address2": "Ste 18", "address3": null, "city": "Jacksonville", "zip_code": "72076", "country": "US", "state": "AR", "display_address": ["140 John Harden Dr", "Ste 18", "Jacksonville, AR 72076"]}, "phone": "+15015969066", "display_phone": "(501) 596-9066", "distance": 25373.991439180056}, {"id": "0xiNRfmd7WQHbIvIpdeQVg", "alias": "american-pie-pizza-little-rock", "name": "American Pie Pizza", "image_url": "https://s3-media3.fl.yelpcdn.com/bphoto/ZbwCpIKnltT9xJAL_dg2ww/o.jpg", "is_closed": false, "url": "https://www.yelp.com/biz/american-pie-pizza-little-rock?adjust_creative=86rbITPMXcJ3WOIrVt31sw&utm_campaign=yelp_api_v3&utm_medium=api_v3_business_search&utm_source=86rbITPMXcJ3WOIrVt31sw", "review_count": 41, "categories": [{"alias": "pizza", "title": "Pizza"}, {"alias": "sandwiches", "title": "Sandwiches"}, {"alias": "bars", "title": "Bars"}], "rating": 3.0, "coordinates": {"latitude": 34.7138950221116, "longitude": -92.3985942599883}, "transactions": ["pickup", "delivery"], "price": "$$", "location": {"address1": "10912 Colonel Glenn Rd", "address2": "Ste 7000", "address3": "", "city": "Little Rock", "zip_code": "72204", "country": "US", "state": "AR", "display_address": ["10912 Colonel Glenn Rd", "Ste 7000", "Little Rock, AR 72204"]}, "phone": "+15012251900", "display_phone": "(501) 225-1900", "distance": 5573.5848792175975}, {"id": "oPwgKazITJ41FkpIafe5Vw", "alias": "us-pizza-co-little-rock-9", "name": "US Pizza Co", "image_url": "https://s3-media2.fl.yelpcdn.com/bphoto/6IJMsVUveCErz6iMemsEiQ/o.jpg", "is_closed": false, "url": "https://www.yelp.com/biz/us-pizza-co-little-rock-9?adjust_creative=86rbITPMXcJ3WOIrVt31sw&utm_campaign=yelp_api_v3&utm_medium=api_v3_business_search&utm_source=86rbITPMXcJ3WOIrVt31sw", "review_count": 25, "categories": [{"alias": "pizza", "title": "Pizza"}, {"alias": "italian", "title": "Italian"}, {"alias": "sandwiches", "title": "Sandwiches"}], "rating": 3.0, "coordinates": {"latitude": 34.7683292572105, "longitude": -92.4565715588486}, "transactions": ["delivery"], "price": "$$", "location": {"address1": "12 Rahling Cir", "address2": "", "address3": null, "city": "Little Rock", "zip_code": "72223", "country": "US", "state": "AR", "display_address": ["12 Rahling Cir", "Little Rock, AR 72223"]}, "phone": "+15018306190", "display_phone": "(501) 830-6190", "distance": 11871.628109720983}, {"id": "SxXyjjrksk8B5qQJvMZ0Lg", "alias": "paxtons-pizza-bryant", "name": "Paxton's Pizza", "image_url": "https://s3-media2.fl.yelpcdn.com/bphoto/uW49avIBUqwog_XVo7qmdA/o.jpg", "is_closed": false, "url": "https://www.yelp.com/biz/paxtons-pizza-bryant?adjust_creative=86rbITPMXcJ3WOIrVt31sw&utm_campaign=yelp_api_v3&utm_medium=api_v3_business_search&utm_source=86rbITPMXcJ3WOIrVt31sw", "review_count": 32, "categories": [{"alias": "pizza", "title": "Pizza"}], "rating": 4.5, "coordinates": {"latitude": 34.626448, "longitude": -92.497254}, "transactions": ["delivery"], "price": "$", "location": {"address1": "5920 Hwy 5 N", "address2": "Ste 1", "address3": "", "city": "Bryant", "zip_code": "72022", "country": "US", "state": "AR", "display_address": ["5920 Hwy 5 N", "Ste 1", "Bryant, AR 72022"]}, "phone": "+15014554242", "display_phone": "(501) 455-4242", "distance": 18065.47595618977}, {"id": "2L7Zie0hoXQuKGc2TpWBAg", "alias": "brunos-little-italy-little-rock-2", "name": "Bruno's Little Italy", "image_url": "https://s3-media1.fl.yelpcdn.com/bphoto/Kr266R2z9R6SVKmMkUsUpg/o.jpg", "is_closed": false, "url": "https://www.yelp.com/biz/brunos-little-italy-little-rock-2?adjust_creative=86rbITPMXcJ3WOIrVt31sw&utm_campaign=yelp_api_v3&utm_medium=api_v3_business_search&utm_source=86rbITPMXcJ3WOIrVt31sw", "review_count": 233, "categories": [{"alias": "italian", "title": "Italian"}, {"alias": "cocktailbars", "title": "Cocktail Bars"}, {"alias": "seafood", "title": "Seafood"}], "rating": 4.0, "coordinates": {"latitude": 34.7457, "longitude": -92.27177}, "transactions": ["delivery"], "price": "$$", "location": {"address1": "310 Main St", "address2": "Ste 101", "address3": "", "city": "Little Rock", "zip_code": "72201", "country": "US", "state": "AR", "display_address": ["310 Main St", "Ste 101", "Little Rock, AR 72201"]}, "phone": "+15013727866", "display_phone": "(501) 372-7866", "distance": 6653.48278567316}, {"id": "XWWFXNYPEjDPddt_yEKwKQ", "alias": "shotgun-dans-pizza-north-little-rock-2", "name": "Shotgun Dan's Pizza", "image_url": "https://s3-media1.fl.yelpcdn.com/bphoto/_-a__Qzu_JAiJjHsGvxyEg/o.jpg", "is_closed": false, "url": "https://www.yelp.com/biz/shotgun-dans-pizza-north-little-rock-2?adjust_creative=86rbITPMXcJ3WOIrVt31sw&utm_campaign=yelp_api_v3&utm_medium=api_v3_business_search&utm_source=86rbITPMXcJ3WOIrVt31sw", "review_count": 29, "categories": [{"alias": "pizza", "title": "Pizza"}], "rating": 4.0, "coordinates": {"latitude": 34.754856, "longitude": -92.220359}, "transactions": ["delivery"], "price": "$", "location": {"address1": "4020 E Broadway St", "address2": "", "address3": "", "city": "North Little Rock", "zip_code": "72117", "country": "US", "state": "AR", "display_address": ["4020 E Broadway St", "North Little Rock, AR 72117"]}, "phone": "+15019450606", "display_phone": "(501) 945-0606", "distance": 11366.35075740625}, {"id": "0rVjK4-VsVJYStV9RLywYA", "alias": "ginos-pizzeria-and-philly-steaks-little-rock", "name": "Gino's Pizzeria  & Philly Steaks", "image_url": "https://s3-media1.fl.yelpcdn.com/bphoto/45eeHbq6F2wObHs-O9hOZA/o.jpg", "is_closed": false, "url": "https://www.yelp.com/biz/ginos-pizzeria-and-philly-steaks-little-rock?adjust_creative=86rbITPMXcJ3WOIrVt31sw&utm_campaign=yelp_api_v3&utm_medium=api_v3_business_search&utm_source=86rbITPMXcJ3WOIrVt31sw", "review_count": 17, "categories": [{"alias": "pizza", "title": "Pizza"}, {"alias": "sandwiches", "title": "Sandwiches"}], "rating": 4.0, "coordinates": {"latitude": 34.67754867080184, "longitude": -92.34458417299747}, "transactions": ["delivery"], "price": "$", "location": {"address1": "8000 Geyer Springs Rd", "address2": "", "address3": "", "city": "Little Rock", "zip_code": "72209", "country": "US", "state": "AR", "display_address": ["8000 Geyer Springs Rd", "Little Rock, AR 72209"]}, "phone": "+15015620152", "display_phone": "(501) 562-0152", "distance": 5124.549063595296}, {"id": "MfYs1ZCDUPNEIveh7mk8-g", "alias": "the-pizzeria-little-rock-2", "name": "The Pizzeria", "image_url": "https://s3-media2.fl.yelpcdn.com/bphoto/UFKdKUql0KY2HqxUaPTZTg/o.jpg", "is_closed": false, "url": "https://www.yelp.com/biz/the-pizzeria-little-rock-2?adjust_creative=86rbITPMXcJ3WOIrVt31sw&utm_campaign=yelp_api_v3&utm_medium=api_v3_business_search&utm_source=86rbITPMXcJ3WOIrVt31sw", "review_count": 57, "categories": [{"alias": "pizza", "title": "Pizza"}, {"alias": "cocktailbars", "title": "Cocktail Bars"}], "rating": 3.5, "coordinates": {"latitude": 34.7682487374994, "longitude": -92.3295907621028}, "transactions": ["delivery"], "price": "$$", "location": {"address1": "4910 Kavanaugh Blvd", "address2": null, "address3": "", "city": "Little Rock", "zip_code": "72207", "country": "US", "state": "AR", "display_address": ["4910 Kavanaugh Blvd", "Little Rock, AR 72207"]}, "phone": "+15015511388", "display_phone": "(501) 551-1388", "distance": 5058.1631406833585}, {"id": "n5qiXK0nyyHPLn56ztZCPA", "alias": "damgoode-pies-little-rock-6", "name": "Damgoode Pies", "image_url": "https://s3-media1.fl.yelpcdn.com/bphoto/MLH3lo7mQfNs3-eBtOzAJQ/o.jpg", "is_closed": false, "url": "https://www.yelp.com/biz/damgoode-pies-little-rock-6?adjust_creative=86rbITPMXcJ3WOIrVt31sw&utm_campaign=yelp_api_v3&utm_medium=api_v3_business_search&utm_source=86rbITPMXcJ3WOIrVt31sw", "review_count": 73, "categories": [{"alias": "pizza", "title": "Pizza"}], "rating": 4.0, "coordinates": {"latitude": 34.757238278945835, "longitude": -92.32314726078742}, "transactions": ["pickup", "delivery"], "price": "$$", "location": {"address1": "2701 Kavanaugh Blvd", "address2": "Ste 110", "address3": "", "city": "Little Rock", "zip_code": "72205", "country": "US", "state": "AR", "display_address": ["2701 Kavanaugh Blvd", "Ste 110", "Little Rock, AR 72205"]}, "phone": "+15016642239", "display_phone": "(501) 664-2239", "distance": 4024.4557021215824}, {"id": "8NY7woPzlzZiBd6VNO5kDw", "alias": "dogtown-pizza-north-little-rock", "name": "Dogtown Pizza", "image_url": "https://s3-media3.fl.yelpcdn.com/bphoto/X3vkj5N5nP_sXDi8FhgL2Q/o.jpg", "is_closed": false, "url": "https://www.yelp.com/biz/dogtown-pizza-north-little-rock?adjust_creative=86rbITPMXcJ3WOIrVt31sw&utm_campaign=yelp_api_v3&utm_medium=api_v3_business_search&utm_source=86rbITPMXcJ3WOIrVt31sw", "review_count": 5, "categories": [{"alias": "restaurants", "title": "Restaurants"}], "rating": 4.5, "coordinates": {"latitude": 34.805726, "longitude": -92.291066}, "transactions": [], "location": {"address1": "5500 MacArthur Dr", "address2": "", "address3": null, "city": "North Little Rock", "zip_code": "72118", "country": "US", "state": "AR", "display_address": ["5500 MacArthur Dr", "North Little Rock, AR 72118"]}, "phone": "+15016158989", "display_phone": "(501) 615-8989", "distance": 10135.54670587867}, {"id": "y3_ZLYlptKTPslv86G2LKA", "alias": "shotgun-dans-pizza-sherwood-4", "name": "Shotgun Dan's Pizza", "image_url": "https://s3-media3.fl.yelpcdn.com/bphoto/XiSpYTWR08wz5mWJD8guTw/o.jpg", "is_closed": false, "url": "https://www.yelp.com/biz/shotgun-dans-pizza-sherwood-4?adjust_creative=86rbITPMXcJ3WOIrVt31sw&utm_campaign=yelp_api_v3&utm_medium=api_v3_business_search&utm_source=86rbITPMXcJ3WOIrVt31sw", "review_count": 74, "categories": [{"alias": "pizza", "title": "Pizza"}], "rating": 3.5, "coordinates": {"latitude": 34.8323440551758, "longitude": -92.1837539672852}, "transactions": ["delivery"], "price": "$$", "location": {"address1": "4203 E Kiehl Ave", "address2": "", "address3": "", "city": "Sherwood", "zip_code": "72120", "country": "US", "state": "AR", "display_address": ["4203 E Kiehl Ave", "Sherwood, AR 72120"]}, "phone": "+15018350606", "display_phone": "(501) 835-0606", "distance": 18630.98740534318}, {"id": "xSablXdV3BdCN3pCCFFO2w", "alias": "pizza-cafe-west-little-rock", "name": "Pizza Cafe West", "image_url": "https://s3-media1.fl.yelpcdn.com/bphoto/SvGn7pN1_cxLq9VSpgkB6Q/o.jpg", "is_closed": false, "url": "https://www.yelp.com/biz/pizza-cafe-west-little-rock?adjust_creative=86rbITPMXcJ3WOIrVt31sw&utm_campaign=yelp_api_v3&utm_medium=api_v3_business_search&utm_source=86rbITPMXcJ3WOIrVt31sw", "review_count": 25, "categories": [{"alias": "pizza", "title": "Pizza"}], "rating": 3.5, "coordinates": {"latitude": 34.802076, "longitude": -92.436097}, "transactions": ["delivery"], "price": "$$", "location": {"address1": "14710 Cantrell Rd", "address2": "Ste 14A", "address3": "", "city": "Little Rock", "zip_code": "72223", "country": "US", "state": "AR", "display_address": ["14710 Cantrell Rd", "Ste 14A", "Little Rock, AR 72223"]}, "phone": "+15018682600", "display_phone": "(501) 868-2600", "distance": 12478.153007741123}, {"id": "jJ_97sYRXrbUUZXVPcmyrg", "alias": "roma-italian-restaurant-jacksonville-3", "name": "Roma Italian Restaurant", "image_url": "https://s3-media2.fl.yelpcdn.com/bphoto/OGHXpyA4H4l_gWPaCy4N7A/o.jpg", "is_closed": false, "url": "https://www.yelp.com/biz/roma-italian-restaurant-jacksonville-3?adjust_creative=86rbITPMXcJ3WOIrVt31sw&utm_campaign=yelp_api_v3&utm_medium=api_v3_business_search&utm_source=86rbITPMXcJ3WOIrVt31sw", "review_count": 115, "categories": [{"alias": "italian", "title": "Italian"}], "rating": 4.0, "coordinates": {"latitude": 34.885914, "longitude": -92.105217}, "transactions": ["delivery"], "price": "$$", "location": {"address1": "2126 N 1st St", "address2": "", "address3": "", "city": "Jacksonville", "zip_code": "72076", "country": "US", "state": "AR", "display_address": ["2126 N 1st St", "Jacksonville, AR 72076"]}, "phone": "+15012411632", "display_phone": "(501) 241-1632", "distance": 27948.50054324701}, {"id": "pu6hBwiob-vlV8Zr4yM-bg", "alias": "hideaway-pizza-benton-2", "name": "Hideaway Pizza", "image_url": "https://s3-media3.fl.yelpcdn.com/bphoto/fbXCUgo8T-Aev3BLihn4nA/o.jpg", "is_closed": false, "url": "https://www.yelp.com/biz/hideaway-pizza-benton-2?adjust_creative=86rbITPMXcJ3WOIrVt31sw&utm_campaign=yelp_api_v3&utm_medium=api_v3_business_search&utm_source=86rbITPMXcJ3WOIrVt31sw", "review_count": 55, "categories": [{"alias": "pizza", "title": "Pizza"}, {"alias": "italian", "title": "Italian"}, {"alias": "sandwiches", "title": "Sandwiches"}], "rating": 4.0, "coordinates": {"latitude": 34.604797, "longitude": -92.5399219}, "transactions": [], "price": "$$", "location": {"address1": "20260 I-30", "address2": "", "address3": null, "city": "Benton", "zip_code": "72019", "country": "US", "state": "AR", "display_address": ["20260 I-30", "Benton, AR 72019"]}, "phone": "+15012607777", "display_phone": "(501) 260-7777", "distance": 22638.52066568675}, {"id": "l8c_1Uoa395f55oOZZxp4A", "alias": "luigis-pizza-and-pasta-ar", "name": "Luigi's Pizza & Pasta", "image_url": "https://s3-media1.fl.yelpcdn.com/bphoto/l5DWTH4i9QBuJaBDBs1dPw/o.jpg", "is_closed": false, "url": "https://www.yelp.com/biz/luigis-pizza-and-pasta-ar?adjust_creative=86rbITPMXcJ3WOIrVt31sw&utm_campaign=yelp_api_v3&utm_medium=api_v3_business_search&utm_source=86rbITPMXcJ3WOIrVt31sw", "review_count": 60, "categories": [{"alias": "italian", "title": "Italian"}, {"alias": "pizza", "title": "Pizza"}], "rating": 3.5, "coordinates": {"latitude": 34.61329500000001, "longitude": -92.51317999999999}, "transactions": ["pickup", "delivery"], "price": "$$", "location": {"address1": "22000 Interstate 30 N", "address2": "", "address3": "", "city": "AR", "zip_code": "", "country": "US", "state": "AR", "display_address": ["22000 Interstate 30 N", "AR, AR"]}, "phone": "+15018471110", "display_phone": "(501) 847-1110", "distance": 20110.147818979225}, {"id": "nI1n2U93gVTB6lIDGwQQ0g", "alias": "larrys-pizza-bryant", "name": "Larry's Pizza", "image_url": "https://s3-media3.fl.yelpcdn.com/bphoto/hGt5IUP-KF2pZVf9cUf8CQ/o.jpg", "is_closed": false, "url": "https://www.yelp.com/biz/larrys-pizza-bryant?adjust_creative=86rbITPMXcJ3WOIrVt31sw&utm_campaign=yelp_api_v3&utm_medium=api_v3_business_search&utm_source=86rbITPMXcJ3WOIrVt31sw", "review_count": 57, "categories": [{"alias": "pizza", "title": "Pizza"}, {"alias": "buffets", "title": "Buffets"}], "rating": 4.5, "coordinates": {"latitude": 34.6194471977119, "longitude": -92.5075442091926}, "transactions": ["pickup", "delivery"], "price": "$$", "location": {"address1": "4500 Hwy 5 N", "address2": "", "address3": "", "city": "Bryant", "zip_code": "72022", "country": "US", "state": "AR", "display_address": ["4500 Hwy 5 N", "Bryant, AR 72022"]}, "phone": "+15018475003", "display_phone": "(501) 847-5003", "distance": 19285.715405380502}, {"id": "qA0XANFYjTy_0EHIqJ5jMQ", "alias": "jims-razorback-pizza-little-rock", "name": "Jim's Razorback Pizza", "image_url": "https://s3-media2.fl.yelpcdn.com/bphoto/LmU2ppr5R4hPDRcZ135emw/o.jpg", "is_closed": false, "url": "https://www.yelp.com/biz/jims-razorback-pizza-little-rock?adjust_creative=86rbITPMXcJ3WOIrVt31sw&utm_campaign=yelp_api_v3&utm_medium=api_v3_business_search&utm_source=86rbITPMXcJ3WOIrVt31sw", "review_count": 20, "categories": [{"alias": "italian", "title": "Italian"}, {"alias": "pizza", "title": "Pizza"}], "rating": 3.5, "coordinates": {"latitude": 34.8026221374328, "longitude": -92.450227942884}, "transactions": ["delivery"], "price": "$$", "location": {"address1": "16101 Cantrell Rd", "address2": null, "address3": null, "city": "Little Rock", "zip_code": "72223", "country": "US", "state": "AR", "display_address": ["16101 Cantrell Rd", "Little Rock, AR 72223"]}, "phone": "+15018683250", "display_phone": "(501) 868-3250", "distance": 13468.572639730048}, {"id": "YX0ewrV4SO2iFjNsI6T7TQ", "alias": "lost-pizza-benton-2", "name": "Lost Pizza", "image_url": "https://s3-media2.fl.yelpcdn.com/bphoto/nKEMJnBlXuaI5CTLZt-APg/o.jpg", "is_closed": false, "url": "https://www.yelp.com/biz/lost-pizza-benton-2?adjust_creative=86rbITPMXcJ3WOIrVt31sw&utm_campaign=yelp_api_v3&utm_medium=api_v3_business_search&utm_source=86rbITPMXcJ3WOIrVt31sw", "review_count": 37, "categories": [{"alias": "pizza", "title": "Pizza"}], "rating": 4.5, "coordinates": {"latitude": 34.60226010388034, "longitude": -92.54826732944781}, "transactions": [], "location": {"address1": "510 Hwy 5 N", "address2": null, "address3": null, "city": "Benton", "zip_code": "72019", "country": "US", "state": "AR", "display_address": ["510 Hwy 5 N", "Benton, AR 72019"]}, "phone": "+15017946441", "display_phone": "(501) 794-6441", "distance": 23424.47411938334}, {"id": "JHf7oKPgG-pub52XNSaoxA", "alias": "marco-s-pizza-bryant", "name": "Marco\u2019s Pizza", "image_url": "https://s3-media2.fl.yelpcdn.com/bphoto/A-gw0n7yZ1Ovh_FNLfsO9w/o.jpg", "is_closed": false, "url": "https://www.yelp.com/biz/marco-s-pizza-bryant?adjust_creative=86rbITPMXcJ3WOIrVt31sw&utm_campaign=yelp_api_v3&utm_medium=api_v3_business_search&utm_source=86rbITPMXcJ3WOIrVt31sw", "review_count": 1, "categories": [{"alias": "pizza", "title": "Pizza"}], "rating": 5.0, "coordinates": {"latitude": 34.6235784, "longitude": -92.5026572}, "transactions": [], "location": {"address1": "5313 Highway 5 N", "address2": "Ste 202", "address3": null, "city": "Bryant", "zip_code": "72022", "country": "US", "state": "AR", "display_address": ["5313 Highway 5 N", "Ste 202", "Bryant, AR 72022"]}, "phone": "+15014815566", "display_phone": "(501) 481-5566", "distance": 18652.623176725043}, {"id": "Je3vGIGfb7UDXOFUUNeKVQ", "alias": "pie-five-pizza-little-rock", "name": "Pie Five Pizza", "image_url": "https://s3-media2.fl.yelpcdn.com/bphoto/q-9HXNg_GPQ0yLR5bF7hCw/o.jpg", "is_closed": false, "url": "https://www.yelp.com/biz/pie-five-pizza-little-rock?adjust_creative=86rbITPMXcJ3WOIrVt31sw&utm_campaign=yelp_api_v3&utm_medium=api_v3_business_search&utm_source=86rbITPMXcJ3WOIrVt31sw", "review_count": 36, "categories": [{"alias": "pizza", "title": "Pizza"}], "rating": 3.0, "coordinates": {"latitude": 34.6621903152338, "longitude": -92.4063753039237}, "transactions": ["pickup", "delivery"], "price": "$", "location": {"address1": "10800 Bass Pro Pkwy", "address2": "Ste D", "address3": null, "city": "Little Rock", "zip_code": "72210", "country": "US", "state": "AR", "display_address": ["10800 Bass Pro Pkwy", "Ste D", "Little Rock, AR 72210"]}, "phone": "+15014557435", "display_phone": "(501) 455-7435", "distance": 9195.78553644535}, {"id": "fIoJOHJYu9CoGj4XPf6x3A", "alias": "larrys-pizza-downtown-little-rock", "name": "Larry's Pizza - Downtown", "image_url": "https://s3-media1.fl.yelpcdn.com/bphoto/Ongu2v1akDhCnPkjO1zASw/o.jpg", "is_closed": false, "url": "https://www.yelp.com/biz/larrys-pizza-downtown-little-rock?adjust_creative=86rbITPMXcJ3WOIrVt31sw&utm_campaign=yelp_api_v3&utm_medium=api_v3_business_search&utm_source=86rbITPMXcJ3WOIrVt31sw", "review_count": 16, "categories": [{"alias": "pizza", "title": "Pizza"}], "rating": 4.5, "coordinates": {"latitude": 34.737850189209, "longitude": -92.2751617431641}, "transactions": ["pickup", "delivery"], "price": "$", "location": {"address1": "1122 Center St", "address2": "", "address3": "", "city": "Little Rock", "zip_code": "72202", "country": "US", "state": "AR", "display_address": ["1122 Center St", "Little Rock, AR 72202"]}, "phone": "+15013726004", "display_phone": "(501) 372-6004", "distance": 6026.366793887097}, {"id": "f7vAwQ-N0DVuEbAb_HQVFw", "alias": "dizzys-gypsy-bistro-little-rock", "name": "Dizzy's Gypsy Bistro", "image_url": "https://s3-media1.fl.yelpcdn.com/bphoto/lINvZz_7sfloTLz5pwBw5w/o.jpg", "is_closed": false, "url": "https://www.yelp.com/biz/dizzys-gypsy-bistro-little-rock?adjust_creative=86rbITPMXcJ3WOIrVt31sw&utm_campaign=yelp_api_v3&utm_medium=api_v3_business_search&utm_source=86rbITPMXcJ3WOIrVt31sw", "review_count": 348, "categories": [{"alias": "newamerican", "title": "American (New)"}, {"alias": "cocktailbars", "title": "Cocktail Bars"}], "rating": 4.0, "coordinates": {"latitude": 34.745829, "longitude": -92.265947}, "transactions": ["delivery"], "price": "$$", "location": {"address1": "200 River Market Ave", "address2": "Ste 150", "address3": null, "city": "Little Rock", "zip_code": "72201", "country": "US", "state": "AR", "display_address": ["200 River Market Ave", "Ste 150", "Little Rock, AR 72201"]}, "phone": "+15013753500", "display_phone": "(501) 375-3500", "distance": 7102.534579111699}, {"id": "SEZQd0xqdZ8wV-rohquuYg", "alias": "morinas-italian-restaurant-cabot-2", "name": "Morina's Italian Restaurant", "image_url": "https://s3-media4.fl.yelpcdn.com/bphoto/c8H2FclMMoe54zEpfQBsXw/o.jpg", "is_closed": false, "url": "https://www.yelp.com/biz/morinas-italian-restaurant-cabot-2?adjust_creative=86rbITPMXcJ3WOIrVt31sw&utm_campaign=yelp_api_v3&utm_medium=api_v3_business_search&utm_source=86rbITPMXcJ3WOIrVt31sw", "review_count": 76, "categories": [{"alias": "italian", "title": "Italian"}], "rating": 4.0, "coordinates": {"latitude": 34.943899, "longitude": -92.009091}, "transactions": [], "price": "$$", "location": {"address1": "2006 S Pine St", "address2": "", "address3": "", "city": "Cabot", "zip_code": "72023", "country": "US", "state": "AR", "display_address": ["2006 S Pine St", "Cabot, AR 72023"]}, "phone": "+15019417000", "display_phone": "(501) 941-7000", "distance": 38811.634952431086}, {"id": "RIn-FbAx3pR3bphtKjgY8g", "alias": "pizza-d-action-little-rock", "name": "Pizza D'Action", "image_url": "https://s3-media1.fl.yelpcdn.com/bphoto/zTHqIfx4NiX8jVhAZu29Aw/o.jpg", "is_closed": false, "url": "https://www.yelp.com/biz/pizza-d-action-little-rock?adjust_creative=86rbITPMXcJ3WOIrVt31sw&utm_campaign=yelp_api_v3&utm_medium=api_v3_business_search&utm_source=86rbITPMXcJ3WOIrVt31sw", "review_count": 34, "categories": [{"alias": "pizza", "title": "Pizza"}], "rating": 3.5, "coordinates": {"latitude": 34.750656, "longitude": -92.306228}, "transactions": ["delivery"], "price": "$$", "location": {"address1": "2919 W Markham St", "address2": "", "address3": "", "city": "Little Rock", "zip_code": "72205", "country": "US", "state": "AR", "display_address": ["2919 W Markham St", "Little Rock, AR 72205"]}, "phone": "+15016665403", "display_phone": "(501) 666-5403", "distance": 4256.00524871069}]